{"type":"FeatureCollection","features":[{"type":"Feature","properties":{"name":"Albany","county":"Albany"},"geometry":{"type":"Point","coordinates":[-73.7566,42.6525]}},{"type":"Feature","properties":{"name":"Buffalo","county":"Erie"},"geometry":{"type":"Point","coordinates":[-78.884575,42.896659]}},{"type":"Feature","properties":{"name":"New York","county":"New York"},"geometry":{"type":"Point","coordinates":[-73.996705,40.74838]}},{"type":"Feature","properties":{"name":"Rochester","county":"Monroe"},"geometry":{"type":"Point","coordinates":[-77.6026,43.1683]}},{"type":"Feature","properties":{"name":"Syracuse","county":"Onondaga"},"geometry":{"type":"Point","coordinates":[-76.1528,43.0459]}},{"type":"Feature","properties":{"name":"Yonkers","county":"Westchester"},"geometry":{"type":"Point","coordinates":[-73.888317,40.940716]}}]}