{"type":"FeatureCollection","features":[{"type":"Feature","properties":{"name":"Abilene","county":"Taylor"},"geometry":{"type":"Point","coordinates":[-99.718208,32.468155]}},{"type":"Feature","properties":{"name":"Amarillo","county":"Randall"},"geometry":{"type":"Point","coordinates":[-101.886764,35.166332]}},{"type":"Feature","properties":{"name":"Arlington","county":"Tarrant"},"geometry":{"type":"Point","coordinates":[-97.1469,32.6336]}},{"type":"Feature","properties":{"name":"Austin","county":"Williamson"},"geometry":{"type":"Point","coordinates":[-97.747187,30.505972]}},{"type":"Feature","properties":{"name":"Beaumont","county":"Jefferson"},"geometry":{"type":"Point","coordinates":[-94.103896,30.068805]}},{"type":"Feature","properties":{"name":"Brownsville","county":"Cameron"},"geometry":{"type":"Point","coordinates":[-97.517413,25.933743]}},{"type":"Feature","properties":{"name":"Carrollton","county":"Denton"},"geometry":{"type":"Point","coordinates":[-96.881988,33.003294]}},{"type":"Feature","properties":{"name":"College Station","county":"Brazos"},"geometry":{"type":"Point","coordinates":[-96.31227,30.604476]}},{"type":"Feature","properties":{"name":"Corpus Christi","county":"Nueces"},"geometry":{"type":"Point","coordinates":[-97.402994,27.794086]}},{"type":"Feature","properties":{"name":"Dallas","county":"Dallas"},"geometry":{"type":"Point","coordinates":[-96.80439,32.790439]}},{"type":"Feature","properties":{"name":"Denton","county":"Denton"},"geometry":{"type":"Point","coordinates":[-97.131436,33.22893]}},{"type":"Feature","properties":{"name":"El Paso","county":"El Paso"},"geometry":{"type":"Point","coordinates":[-106.478311,31.758411]}},{"type":"Feature","properties":{"name":"Fort Worth","county":"Tarrant"},"geometry":{"type":"Point","coordinates":[-97.3268,32.7469]}},{"type":"Feature","properties":{"name":"Frisco","county":"Denton"},"geometry":{"type":"Point","coordinates":[-96.824105,33.149901]}},{"type":"Feature","properties":{"name":"Garland","county":"Dallas"},"geometry":{"type":"Point","coordinates":[-96.624804,32.922744]}},{"type":"Feature","properties":{"name":"Grand Prairie","county":"Dallas"},"geometry":{"type":"Point","coordinates":[-97.01121,32.76488]}},{"type":"Feature","properties":{"name":"Houston","county":"Harris"},"geometry":{"type":"Point","coordinates":[-95.3657,29.7652]}},{"type":"Feature","properties":{"name":"Irving","county":"Dallas"},"geometry":{"type":"Point","coordinates":[-96.9719,32.842]}},{"type":"Feature","properties":{"name":"Killeen","county":"Bell"},"geometry":{"type":"Point","coordinates":[-97.7261,31.117]}},{"type":"Feature","properties":{"name":"Laredo","county":"Webb"},"geometry":{"type":"Point","coordinates":[-99.498579,27.515538]}},{"type":"Feature","properties":{"name":"Lewisville","county":"Denton"},"geometry":{"type":"Point","coordinates":[-96.993889,33.046111]}},{"type":"Feature","properties":{"name":"Lubbock","county":"Lubbock"},"geometry":{"type":"Point","coordinates":[-101.860634,33.586527]}},{"type":"Feature","properties":{"name":"Mcallen","county":"Hidalgo"},"geometry":{"type":"Point","coordinates":[-98.235871,26.21544]}},{"type":"Feature","properties":{"name":"Mckinney","county":"Collin"},"geometry":{"type":"Point","coordinates":[-96.608488,33.196558]}},{"type":"Feature","properties":{"name":"Mesquite","county":"Dallas"},"geometry":{"type":"Point","coordinates":[-96.608219,32.767821]}},{"type":"Feature","properties":{"name":"Midland","county":"Midland"},"geometry":{"type":"Point","coordinates":[-102.06261,31.989636]}},{"type":"Feature","properties":{"name":"Odessa","county":"Ector"},"geometry":{"type":"Point","coordinates":[-102.3663,31.8465]}},{"type":"Feature","properties":{"name":"Pasadena","county":"Harris"},"geometry":{"type":"Point","coordinates":[-95.2005,29.692]}},{"type":"Feature","properties":{"name":"Pearland","county":"Brazoria"},"geometry":{"type":"Point","coordinates":[-95.272069,29.561656]}},{"type":"Feature","properties":{"name":"Plano","county":"Collin"},"geometry":{"type":"Point","coordinates":[-96.736454,33.054972]}},{"type":"Feature","properties":{"name":"Richardson","county":"Dallas"},"geometry":{"type":"Point","coordinates":[-96.745249,32.965986]}},{"type":"Feature","properties":{"name":"Round Rock","county":"Williamson"},"geometry":{"type":"Point","coordinates":[-97.668028,30.51452]}},{"type":"Feature","properties":{"name":"San Antonio","county":"Comal"},"geometry":{"type":"Point","coordinates":[-98.312774,29.644226]}},{"type":"Feature","properties":{"name":"Tyler","county":"Smith"},"geometry":{"type":"Point","coordinates":[-95.292179,32.325366]}},{"type":"Feature","properties":{"name":"Waco","county":"Mclennan"},"geometry":{"type":"Point","coordinates":[-97.139608,31.552452]}},{"type":"Feature","properties":{"name":"Wichita Falls","county":"Wichita"},"geometry":{"type":"Point","coordinates":[-98.497645,33.905284]}}]}